[{"userId":10,"name":"יעל רוט","phone":"0556766882","items":[{"id":1,"location":"הרובע היהודי בירושלים","region":"ירושלים","guide":"יוסי כהן","pricePerPerson":70,"ageRange":"10-70","lat":31.7767,"lng":35.2345,"availableHours":["10:00","13:00","17:00"],"maxPeople":20,"bookings":{},"imageUrl":"public/images/Jerusalem_19.jpg","selectedDate":"2025-06-01","selectedCount":20},{"id":2,"location":"פארק המעיינות","region":"צפון","guide":"שרה גולן","pricePerPerson":60,"ageRange":"5-65","lat":32.5091,"lng":35.5036,"availableHours":["09:00","12:00","15:00"],"maxPeople":20,"bookings":{"2025-06-23":1},"imageUrl":"public/images/פארק המעינות.jpg","selectedDate":"2025-06-24","selectedCount":1}]},{"userId":15,"name":"שבי כהן","phone":"0533197281","items":[{"id":1,"location":"הרובע היהודי בירושלים","region":"ירושלים והסביבה","guide":"יוסי כהן","pricePerPerson":70,"ageRange":"10-70","lat":31.7767,"lng":35.2345,"availableHours":["10:00","13:00","17:00"],"maxPeople":20,"bookings":{},"imageUrl":"public/images/Jerusalem_19.jpg","selectedDate":"2025-06-24","selectedCount":1},{"id":1,"location":"הרובע היהודי בירושלים","region":"ירושלים והסביבה","guide":"יוסי כהן","pricePerPerson":70,"ageRange":"10-70","lat":31.7767,"lng":35.2345,"availableHours":["10:00","13:00","17:00"],"maxPeople":20,"bookings":{},"imageUrl":"public/images/Jerusalem_19.jpg","selectedDate":"2025-06-24","selectedCount":1}]},{"userId":16,"name":"noa","phone":"0533197281","items":[{"id":1,"location":"הרובע היהודי בירושלים","region":"ירושלים והסביבה","guide":"יוסי כהן","pricePerPerson":70,"ageRange":"10-70","lat":31.7767,"lng":35.2345,"availableHours":["10:00","13:00","17:00"],"maxPeople":20,"bookings":{},"imageUrl":"public/images/Jerusalem_19.jpg","selectedDate":"2025-06-01","selectedCount":1},{"id":2,"location":"פארק המעיינות","region":"צפון","guide":"שרה גולן","pricePerPerson":60,"ageRange":"5-65","lat":32.5091,"lng":35.5036,"availableHours":["09:00","12:00","15:00"],"maxPeople":20,"bookings":{},"imageUrl":"public/images/פארק המעינות.jpg","selectedDate":"2025-04-30","selectedCount":5}]},{"userId":12,"name":"עומר פרידמן","phone":"0555555555","items":[{"id":6,"location":"חוף האלמוגים","region":"אילת והערבה","guide":"עומר גולן","pricePerPerson":"200","ageRange":"10-60","lat":29.508002,"lng":34.920761,"availableHours":["8:00-4:00"],"maxPeople":"8","imageUrl":"public/images/חוף האלמוגים.jpg","selectedDate":"2025-06-22","selectedCount":5}]},{"userId":14,"name":"משה דיין","phone":"0777777777","items":[{"id":6,"location":"חוף האלמוגים","region":"אילת והערבה","guide":"עומר גולן","pricePerPerson":"200","ageRange":"10-60","lat":29.508002,"lng":34.920761,"availableHours":["8:00-4:00"],"maxPeople":"8","bookings":{},"imageUrl":"public/images/חוף האלמוגים.jpg","selectedDate":"2025-06-22","selectedCount":8}]},{"userId":14,"name":"משה דיין","phone":"0777777777","items":[{"id":6,"location":"חוף האלמוגים","region":"אילת והערבה","guide":"עומר גולן","pricePerPerson":"200","ageRange":"10-60","lat":29.508002,"lng":34.920761,"availableHours":["8:00-4:00"],"maxPeople":"8","bookings":{},"imageUrl":"public/images/חוף האלמוגים.jpg","selectedDate":"2025-06-22","selectedCount":8}]},{"userId":14,"name":"משה דיין","phone":"0777777777","items":[{"id":6,"location":"חוף האלמוגים","region":"אילת והערבה","guide":"עומר גולן","pricePerPerson":"200","ageRange":"10-60","lat":29.508002,"lng":34.920761,"availableHours":["8:00-4:00"],"maxPeople":"8","bookings":{},"imageUrl":"public/images/חוף האלמוגים.jpg","selectedDate":"2025-06-22","selectedCount":8}]},{"userId":14,"name":"moshe dayan","phone":"0555555555","items":[{"id":6,"location":"חוף האלמוגים","region":"אילת והערבה","guide":"עומר גולן","pricePerPerson":"200","ageRange":"10-60","lat":29.508002,"lng":34.920761,"availableHours":["8:00-4:00"],"maxPeople":"8","bookings":{},"imageUrl":"public/images/חוף האלמוגים.jpg","selectedDate":"2025-06-22","selectedCount":8}]}]